{"items":[
{
"title":"Di Pietro",
"text":"Pizzerie",
"locationLat":"50.0017017",
"locationLong":"14.4226483",
"address":"Hubičkova 2\nPraha 12",
"openingHours":"1: 1100-2300, 2: 1100-2300, 3: 1100-2300, 4: 1100-2300, 5: 1100-2300, 6: 1100-2300, 7: 1100-2300",
"infoLink":"http:\/\/dipietro.cz",
"buyLink":"http:\/\/dipietro.cz\/denni-menu",
"phone":"244 400 894",
"category":"restaurace",
"filter":"Restaurace"
},
{
"title":"Mont Fort",
"locationLat":"50.0003400",
"locationLong":"14.4273744",
"address":"Pertoldova 8\nPraha 12",
"openingHours":"1: 1100-2300, 2: 1100-2300, 3: 1100-2300, 4: 1100-2300, 5: 1100-2359, 6: 1100-2359, 7: 1200-2300",
"infoLink":"http:\/\/www.montfort.cz",
"buyLink":"http:\/\/montfort.cz\/poledni-menu",
"phone":"244 402 404",
"category":"restaurace",
"filter":"Restaurace"
},
{
"title":"Port 62",
"locationLat":"50.0140494",
"locationLong":"14.3970908",
"address":"Vltavanů\nPraha 12",
"openingHours":"2: 1100-1700, 3: 1100-2300, 4: 1100-2300, 5: 1100-2300, 6: 1100-2300, 7: 1100-1700",
"infoLink":"http:\/\/www.port62.cz",
"buyLink":"http:\/\/www.port62.cz\/menu\/menu-restaurace\/denni-menu",
"phone":"733 762 237",
"category":"restaurace",
"filter":"Restaurace"
},
{
"title":"Modřanská Archa",
"locationLat":"50.0059903",
"locationLong":"14.4171928",
"address":"Sofijské náměstí 2\nPraha 12",
"openingHours":"1: 1100-2300, 2: 1100-2300, 3: 1100-2300, 4: 1100-2300, 5: 1100-2359, 6: 1100-2359, 7: 1100-2300",
"infoLink":"http:\/\/www.restauracearcha.cz",
"buyLink":"http:\/\/www.restauracearcha.cz\/denni-menu",
"phone":"244 402 255",
"category":"restaurace",
"filter":"Restaurace"
},
{
"title":"Fei He",
"text":"Čínská restaurace",
"locationLat":"50.0057869",
"locationLong":"14.4168119",
"address":"Sofijské náměstí 1\nPraha 12",
"openingHours":"1: 1030-2300, 2: 1030-2300, 3: 1030-2300, 4: 1030-2300, 5: 1030-2300, 6: 1030-2300, 7: 1030-2230",
"phone":"241 768 414",
"category":"restaurace",
"filter":"Restaurace"
},
{
"title":"Pod vinicí",
"locationLat":"50.010337",
"locationLong":"14.403813",
"address":"Chuchelská 6\nPraha 12",
"openingHours":"1: 1500-2230, 2: 1500-2230, 3: 1500-2230, 4: 1500-2230, 5: 1500-2230, 6: 1200-2230",
"infoLink":"http:\/\/www.podvinici.cz",
"phone":"241 773 867",
"category":"restaurace",
"filter":"Restaurace"
},
{
"title":"Modřanské Labe",
"locationLat":"50.0132450",
"locationLong":"14.4217911",
"address":"Mráčkova 5\nPraha 12",
"openingHours":"1: 1100-2330, 2: 1100-2330, 3: 1100-2330, 4: 1100-2330, 5: 1100-2330, 6: 1100-2330, 7: 1100-2330",
"infoLink":"http:\/\/www.modranskelabe.cz",
"buyLink":"http:\/\/www.modranskelabe.cz\/denni-menu",
"phone":"725 933 523",
"category":"restaurace",
"filter":"Restaurace"
},
{
"title":"Restaurace u Čámrse",
"locationLat":"49.9874711",
"locationLong":"14.4479753",
"address":"Ražická 88\nPraha 12 - Cholupice",
"openingHours":"1: 1100-2200, 2: 1100-2200, 3: 1100-2200, 4: 1100-2200, 5: 1100-2300, 6: 1100-2300, 7: 1100-2200",
"infoLink":"http:\/\/ucamrse.cz",
"phone":"606 538 937",
"category":"restaurace",
"filter":"Restaurace"
},
{
"title":"U Bukačů",
"locationLat":"49.9898889",
"locationLong":"14.4091692",
"address":"Na Homoli 1\nPraha 12",
"openingHours":"1: 1100-2300, 2: 1100-2300, 3: 1100-2300, 4: 1100-2300, 5: 1100-2300, 6: 1100-2300, 7: 1100-2300",
"phone":"241 765 876",
"category":"restaurace",
"filter":"Restaurace"
},
{
"title":"Dřevák",
"locationLat":"49.9924736",
"locationLong":"14.4098778",
"address":"U klubu 2\nPraha 12",
"openingHours":"1: 1100-2200, 2: 1100-2200, 3: 1100-2200, 4: 1100-2200, 5: 1100-2300, 6: 1130-2300, 7: 1130-2100",
"infoLink":"http:\/\/drevakrestaurace.cz",
"phone":"273 139 327",
"category":"restaurace",
"filter":"Restaurace"
},
{
"title":"Majlo restaurant",
"locationLat":"49.9892681",
"locationLong":"14.4128061",
"address":"K Nouzovu 1\nPraha 12",
"openingHours":"1: 1100-2300, 2: 1100-2300, 3: 1100-2300, 4: 1100-2300, 5: 1100-2300, 6: 1100-2300, 7: 1100-2300",
"infoLink":"http:\/\/www.majlo-restaurant.cz",
"phone":"720 978 578",
"category":"restaurace",
"filter":"Restaurace"
},
{
"title":"Deco",
"text":"Chorvatská rybí restaurace",
"locationLat":"50.0029619",
"locationLong":"14.4053067",
"address":"Komořanská 15\nPraha 12",
"openingHours":"1: 1130-2300, 2: 1130-2300, 3: 1130-2300, 4: 1130-2300, 5: 1130-2300, 6: 1130-2300, 7: 1130-2300",
"phone":"244 464 217",
"infoLink":"http:\/\/www.decorestaurace.cz",
"buyLink":"http:\/\/www.decorestaurace.cz\/deco\/poledni-menu-2",
"category":"restaurace",
"filter":"Restaurace"
},
{
"title":"Restaurant U Vltavy",
"locationLat":"50.0047342",
"locationLong":"14.4052853",
"address":"Obchodní nám. 3\nPraha 12",
"openingHours":"1: 1100-2300, 2: 1100-2300, 3: 1100-2300, 4: 1100-2300, 5: 1100-2359, 6: 1130-2359, 7: 1130-2200",
"phone":"241 773 478",
"infoLink":"http:\/\/www.restaurantuvltavy.cz",
"buyLink":"http:\/\/www.restaurantuvltavy.cz\/index.php?sec=today-menu&lang=cz",
"category":"restaurace",
"filter":"Restaurace"
},
{
"title":"Domyno Burger Bar",
"locationLat":"50.0163519",
"locationLong":"14.4521650",
"address":"areál Domyno Sportovní Akademie\nChýnovská 4\nPraha 4",
"openingHours":"1: 1100-2300, 2: 1100-2300, 3: 1100-2300, 4: 1100-2300, 5: 1100-2300, 6: 1100-2300, 7: 1100-2300",
"phone":"728 034 457",
"infoLink":"http:\/\/www.domynoburger.cz",
"category":"restaurace",
"filter":"Restaurace"
},
{
"title":"Di Carlo",
"locationLat":"50.0168097",
"locationLong":"14.4504233",
"address":"Novodvorská 12\nPraha 4",
"openingHours":"1: 1100-2300, 2: 1100-2300, 3: 1100-2359, 4: 1100-2359, 5: 1100-2359, 6: 1100-2359, 7: 1130-2300",
"phone":"261 342 508",
"infoLink":"http:\/\/www.dicarlo.cz",
"category":"restaurace",
"filter":"Restaurace"
},
{
"title":"Šenkýrna Obzor",
"locationLat":"50.0088253",
"locationLong":"14.4549450",
"address":"Papírníkova 4\nPraha 12",
"openingHours":"1: 1030-2300, 2: 1030-2300, 3: 1030-2300, 4: 1030-2300, 5: 1030-2300, 6: 1030-2300, 7: 1030-2300",
"infoLink":"http:\/\/www.restaurace-vinarna.cz\/senkyrna-obzor",
"phone":"725 348 902",
"category":"restaurace",
"filter":"Restaurace"
},
{
"title":"Hostinec Na Kamýku",
"locationLat":"50.0176644",
"locationLong":"14.4420025",
"address":"Krhanická 21a\nPraha 12",
"openingHours":"1: 1100-2300, 2: 1100-2300, 3: 1100-2300, 4: 1100-2300, 5: 1100-2300, 6: 1100-2300",
"infoLink":"http:\/\/www.utunelu.cz\/kamyk",
"buyLink":"http:\/\/www.utunelu.cz\/kamyk\/denni_menu.pdf",
"phone":"241 406 242",
"category":"restaurace",
"filter":"Restaurace"
},
{
"title":"Xfitness",
"locationLat":"50.0360303",
"locationLong":"14.4126936",
"address":"Branická 48\nPraha 4",
"openingHours":"1: 600-2200, 2: 600-2200, 3: 600-2200, 4: 600-2200, 5: 600-2200, 6: 800-2000, 7: 800-2200",
"infoLink":"http:\/\/www.xfitness.cz",
"phone":"605 189 822",
"category":"obchod",
"filter":"Fitness"
},
{
"title":"Fitness for Joy",
"locationLat":"50.0156339",
"locationLong":"14.4035472",
"address":"Pod Vinicí 21\nPraha 12",
"openingHours":"1: 700-2200, 2: 700-2200, 3: 700-2200, 4: 700-2200, 5: 700-2200, 6: 800-2000, 7: 800-2000",
"infoLink":"http:\/\/www.fitnessforjoy.cz",
"phone":"731 50 85 85",
"category":"obchod",
"filter":"Fitness"
},
{
"title":"Domyno",
"text":"Tenis, beachvolejbal, kolektivní cvičení dle rozvrhu",
"locationLat":"50.0168725",
"locationLong":"14.4505394",
"address":"Novodvorská 12\nPraha 4",
"openingHours":"1: 700-2200, 2: 700-2200, 3: 700-2200, 4: 700-2200, 5: 700-2200, 6: 800-2200, 7: 800-2200",
"infoLink":"http:\/\/www.domyno.cz",
"phone":"261 342 444",
"category":"obchod",
"filter":"Fitness"
},
{
"title":"Fitness club Bluehill",
"locationLat":"50.0016686",
"locationLong":"14.4258375",
"address":"Areál DDM Modřany\nUrbánkova 4\nPraha 12",
"openingHours":"1: 900-1200, 1: 1700-2200, 2: 1300-1700, 3: 900-1200, 3: 1700-2200, 4: 1300-1700, 5: 1600-2130, 6: 900-1400, 7: 900-1400",
"infoLink":"http:\/\/www.fitnessbluehill.cz",
"phone":"774 335 979",
"category":"obchod",
"filter":"Fitness"
},
{
"title":"Hopsáme.cz",
"text":"Kolektivní cvičení dle rozvrhu",
"locationLat":"50.0003992",
"locationLong":"14.4327531",
"address":"ZŠ Pertoldova\nPertoldova 3373\nPraha 12",
"infoLink":"http:\/\/hopsame.cz",
"phone":"734 210 358",
"category":"obchod",
"filter":"Fitness"
},
{
"title":"Fitness R.A.P. Factory",
"locationLat":"50.0124231",
"locationLong":"14.4235850",
"address":"areál ZŠ prof. Švejcara, vchod C\nMráčkova 2\nPraha 12",
"openingHours":"1: 700-2200, 2: 700-2200, 3: 700-2200, 4: 700-2200, 5: 700-2200, 6: 800-2200, 7: 800-2200",
"infoLink":"http:\/\/www.rap-factory.cz",
"phone":"244 402 423",
"category":"obchod",
"filter":"Fitness"
},
{
"title":"Expreska",
"locationLat":"50.0059892",
"locationLong":"14.4171925",
"address":"Sofijské náměstí 2\nPraha 12",
"openingHours":"1: 900-2000, 2: 900-2000, 3: 900-2000, 4: 900-2000, 5: 900-2000, 6: 900-1300, 7: 1600-2000",
"infoLink":"http:\/\/www.expreska.cz\/cz\/sit-center-expreska\/Praha-Modrany-43",
"phone":"777 868 222",
"category":"obchod",
"filter":"Fitness"
},
{
"title":"Cvič.it",
"text":"Kolektivní cvičení dle rozvrhu",
"locationLat":"50.0051858",
"locationLong":"14.4053872",
"address":"Obchodní náměstí 4\nPraha 12",
"infoLink":"http:\/\/www.cvic.it",
"phone":"734 640 264",
"email":"info@cvic.it",
"category":"obchod",
"filter":"Fitness"
},
{
"title":"Hodinář v pasáži",
"locationLat":"50.0056569",
"locationLong":"14.4182111",
"address":"Pasáž Sofie (Prior)\nSofijské náměstí 6\nPraha 12",
"openingHours":"1: 900-1800, 2: 900-1800, 3: 900-1800, 4: 900-1800, 5: 900-1800",
"category":"remeslnik",
"filter":"Hodinářství"
},
{
"title":"MIRKA - Opravna obuvi",
"text":"Rychloopravna obuvi, výroba klíčů",
"locationLat":"50.0056397",
"locationLong":"14.4186564",
"address":"Pasáž Sofie (Prior)\nSofijské náměstí 6\nPraha 12",
"openingHours":"1: 900-1900, 2: 900-1900, 3: 900-1900, 4: 900-1900, 5: 900-1900, 6:900-1200",
"infoLink":"http:\/\/www.opravyobuvi.cz",
"category":"remeslnik",
"filter":"Oprava obuvi"
},
{
"title":"Simona Tůmová",
"text":"Opravy a úpravy oděvů, šití záclon",
"locationLat":"50.0058017",
"locationLong":"14.4141717",
"address":"Poliklinika Modřany, 2.patro\nSoukalova 3\nPraha 12",
"openingHours":"1: 800-1430, 2: 800-1700, 3: 800-1430, 4: 800-1800, 5: 800-1300",
"phone":"241 047 232",
"category":"remeslnik",
"filter":"Krejčovství"
},
{
"title":"Eva Košnářová",
"text":"Opravy a úpravy oděvů, šití bytového textilu",
"locationLat":"50.0053706",
"locationLong":"14.4144989",
"address":"Poliklinika Modřany, přízemí\nSoukalova 3\nPraha 12",
"openingHours":"1: 800-1500, 2: 1100-1800, 3: 800-1500, 4: 1100-1800, 5: 800-1200",
"category":"remeslnik",
"filter":"Krejčovství"
},
{
"title":"Krejčovství Heleny Vé",
"text":"Opravy a úpravy oděvů z běžných materiálů, úpletů, kůže a džínoviny.",
"locationLat":"50.0094319",
"locationLong":"14.4531869",
"address":"Pavlíkova 10\nPraha 12",
"openingHours":"2: 1100-1500, 3: 1100-1900, 4: 1100-1900",
"phone":"774 127 822",
"infoLink":"http:\/\/www.helenyve.cz",
"category":"remeslnik",
"filter":"Krejčovství"
},
{
"title":"Fair Laundry",
"text":"Prádelna a čistírna oděvů",
"locationLat":"50.0130978",
"locationLong":"14.4211478",
"address":"pokladní zóna prodejny Billa Labe\nMazancova 3\nPraha 12",
"openingHours":"1: 1000-1900, 2: 1000-1900, 3: 1000-1900, 4: 1000-1900, 5: 1000-1900, 6: 900-1500",
"infoLink":"http:\/\/www.fairlaundry.cz",
"category":"obchod",
"filter":"Čistírna oděvů"
},
{
"title":"Prádelna v Čechtické",
"text":"Praní a čištění prádla, žehlení a mandlování, šití dek a opravy oděvů",
"locationLat":"50.0193833",
"locationLong":"14.4430508",
"address":"Čechtická 6\nPraha 4",
"openingHours":"1: 800-1630, 2: 800-1630, 3: 800-1630, 4: 800-1630, 5: 800-1400",
"infoLink":"http:\/\/vyzehlenakosile.cz",
"phone":"608 283 382",
"category":"obchod",
"filter":"Čistírna oděvů"
},
{
"title":"Řeznictví Košťál",
"locationLat":"50.0014378",
"locationLong":"14.4074633",
"address":"Pekárkova 15\nPraha 12",
"openingHours":"2: 900-1730, 3: 900-1730, 4: 900-1730, 5: 900-1730",
"category":"obchod",
"filter":"Řeznictví"
},
{
"title":"Kot a Fišer",
"locationLat":"49.9900614",
"locationLong":"14.4092442",
"address":"Na Homoli 2\nPraha 12",
"openingHours":"1: 700-1800, 2: 700-1800, 3: 700-1800, 4: 700-1800, 5: 700-1800, 6: 800-1100",
"phone":"241 772 833",
"category":"obchod",
"filter":"Řeznictví"
},
{
"title":"Statek Dvořák",
"text":"Vlastní vejce, kuřata, sezónně husy, kachny, králíci.\nKuřata nutno předem objednat.",
"locationLat":"49.9585972",
"locationLong":"14.4812367",
"address":"Náves sv. Petra a Pavla 14\nZlatníky - Hodkovice",
"openingHours":"5: 1400-1800, 6: 1000-1200",
"phone":"733 703 961",
"infoLink":"http:\/\/www.nosnice.cz",
"category":"obchod",
"filter":"Řeznictví"
},
{
"title":"Řeznictví Valenta",
"text":"od 1.3.2017 zavřeno",
"locationLat":"50.0142892",
"locationLong":"14.4101108",
"address":"K Otočče 1831\nPraha 12",
"xxxopeningHours":"1: 730-1600, 2: 730-1600, 3: 730-1600, 4: 730-1700, 5: 730-1700, 6: 730-1100",
"category":"obchod",
"filter":"Řeznictví"
},
{
"title":"Lahůdky Uzeniny - Markes",
"locationLat":"50.0351889",
"locationLong":"14.4149803",
"address":"Branická 75\nPraha 4",
"openingHours":"1: 830-1800, 2: 830-1800, 3: 830-1800, 4: 830-1800, 5: 830-1800, 6: 830-1800, 7: 830-1800",
"phone":"605 937 309",
"infoLink":"http:\/\/uzeninove-kytice.unas.cz",
"category":"obchod",
"filter":"Řeznictví"
},
{
"title":"Instalatérské potřeby Milan Mašek",
"locationLat":"50.0027414",
"locationLong":"14.4054356",
"address":"Komořanská 19\nPraha 12",
"openingHours":"1: 700-1700, 2: 700-1700, 3: 700-1700, 4: 700-1700, 5: 700-1700",
"phone":"241 776 176",
"infoLink":"http:\/\/www.instalaterske-potreby.cz",
"category":"obchod",
"filter":"Pro domácnost"
},
{
"title":"Železářství",
"locationLat":"50.0036756",
"locationLong":"14.4048453",
"address":"U Kina 1\nPraha 12",
"openingHours":"1: 700-1800, 2: 700-1800, 3: 700-1800, 4: 700-1800, 5: 700-1800, 6: 800-1200",
"phone":"244 401 072",
"category":"obchod",
"filter":"Pro domácnost"
},
{
"title":"OBI",
"locationLat":"50.0157306",
"locationLong":"14.4307789",
"address":"Lhotecká 2\nPraha 12",
"openingHours":"1: 700-2100, 2: 700-2100, 3: 700-2100, 4: 700-2100, 5: 700-2100, 6: 700-2100, 7: 700-2100",
"phone":"277 001 004",
"infoLink":"http:\/\/www.obi.cz",
"category":"obchod",
"filter":"Pro domácnost"
},
{
"title":"Papírnictví Papírový obchod",
"locationLat":"50.0130069",
"locationLong":"14.4219178",
"address":"Kutilova\nPraha 12",
"openingHours":"1: 730-1800, 2: 730-1800, 3: 730-1800, 4: 730-1800, 5: 730-1800, 6: 1000-1400",
"infoLink":"http:\/\/www.papirovyobchod.cz",
"category":"obchod",
"filter":"Pro domácnost"
},
{
"title":"Papírnictví Papírový obchod",
"locationLat":"50.0152267",
"locationLong":"14.4369367",
"address":"Obchodní centrum Kamýk\nVosátkova 1\nPraha 12",
"openingHours":"1: 800-1800, 2: 800-1800, 3: 800-1800, 4: 800-1800, 5: 800-1800",
"infoLink":"http:\/\/www.papirovyobchod.cz",
"phone":"702 271 374",
"category":"obchod",
"filter":"Pro domácnost"
},
{
"title":"Papírnictví Bemo",
"locationLat":"50.0058911",
"locationLong":"14.4179572",
"address":"Sofijské náměstí 6\nPraha 12",
"openingHours":"1: 800-1800, 2: 800-1800, 3: 800-1800, 4: 800-1800, 5: 800-1800, 6: 900-1200",
"category":"obchod",
"filter":"Pro domácnost"
},
{
"title":"Úklid - Stel Profi",
"text":"Úklidový servis pro firmy i domácnosti",
"address":"Daškova 14\nPraha 12",
"infoLink":"http:\/\/www.profi-uklid.cz",
"phone":"603 456 708",
"email":"stel@profi-uklid.cz",
"category":"remeslnik",
"filter":"Pro domácnost"
},
{
"title":"Cykloservis Cyklosport Tarant",
"locationLat":"50.0098550",
"locationLong":"14.4277247",
"address":"Rakovského 10\nPraha 12",
"openingHours":"1: 1300-2000, 2: 1000-1200, 2: 1300-2000, 3: 1000-1200, 3: 1300-2000, 4: 1000-1200, 4: 1300-2000, 5: 1300-1900, 6: 900-1200",
"infoLink":"http:\/\/www.cyklotarant.cz",
"phone":"605 717 052",
"category":"obchod",
"filter":"Servis"
},
{
"title":"Cykloservis Bike Emergency",
"locationLat":"50.0028942",
"locationLong":"14.4060633",
"address":"K Dolům 10\nPraha 12",
"openingHours":"1: 1000-1200, 1: 1300-2000, 2: 1000-1200, 2: 1300-2000, 3: 1000-1200, 3: 1300-2000, 4: 1000-1200, 4: 1300-2000, 5: 1000-1200, 5: 1300-2000, 6: 1100-1600, 7: 1100-1600",
"infoLink":"http:\/\/www.bike-er.cz",
"phone":"608 931 100",
"email":"info@bike-er.cz",
"category":"obchod",
"filter":"Servis"
},
{
"title":"Cykloservis Miroslav Pokorný",
"locationLat":"50.0033442",
"locationLong":"14.4050567",
"address":"Komořanská 10\nPraha 12",
"openingHours":"1: 1300-1800, 2: 1300-1800, 3: 1300-1800, 4: 1300-1800, 5: 1300-1800",
"phone":"724 514 718",
"category":"obchod",
"filter":"Servis"
},
{
"title":"Cykloservis Cyklo Emap",
"locationLat":"49.9931475",
"locationLong":"14.4673322",
"address":"K Vrtilce 317\nPraha 4 Písnice",
"openingHours":"1: 1000-1800, 2: 1000-1800, 3: 1000-1800, 4: 1200-2000, 5: 1000-1800, 6: 900-1400",
"infoLink":"http:\/\/www.emap-praha.cz",
"phone":"261 911 452",
"email":"obchod@emap-praha.cz",
"category":"obchod",
"filter":"Servis"
},
{
"title":"Mobilní telefony",
"locationLat":"50.0063217",
"locationLong":"14.4043111",
"address":"Modřanská 6\nPraha 12",
"openingHours":"1: 1000-1800, 2: 1000-1800, 3: 1000-1800, 4: 1000-1800, 5: 1000-1800",
"category":"obchod",
"filter":"Servis"
},
{
"title":"Květinářství",
"locationLat":"50.0041722",
"locationLong":"14.4050544",
"address":"Komořanská\nPraha 12",
"openingHours":"1: 900-1315, 1: 1330-1800, 2: 900-1315, 2: 1330-1800, 3: 900-1315, 3: 1330-1800, 4: 900-1315, 4: 1330-1800, 5: 900-1315, 5: 1330-1800, 6: 900-1200",
"category":"obchod",
"filter":"Květinářství"
},
{
"title":"Květiny Václav Sakař",
"locationLat":"50.0052306",
"locationLong":"14.4163144",
"address":"Čs. exilu 34\nPraha 12",
"openingHours":"1: 800-1900, 2: 800-1900, 3: 800-1900, 4: 800-1900, 5: 800-1900, 6: 800-1800, 7: 800-1800",
"category":"obchod",
"filter":"Květinářství"
},
{
"title":"Květiny, keramika, dárky",
"locationLat":"50.0004381",
"locationLong":"14.4274725",
"address":"Pertoldova 10\nPraha 12",
"openingHours":"1: 900-1800, 2: 900-1800, 3: 900-1800, 4: 900-1800, 5: 900-1800, 6: 800-1200",
"phone":"739 651 239",
"category":"obchod",
"filter":"Květinářství"
},
{
"title":"Flamengo",
"locationLat":"50.0137219",
"locationLong":"14.4189858",
"address":"Lhotecká 2109 (Kaufland)\nPraha 12",
"openingHours":"1: 800-2000, 2: 800-2000, 3: 800-2000, 4: 800-2000, 5: 800-2000, 6: 800-2000, 7: 800-2000",
"infoLink":"https:\/\/www.flamengo-kvetiny.cz",
"category":"obchod",
"filter":"Květinářství"
},
{
"title":"Květiny Erika",
"locationLat":"50.0130061",
"locationLong":"14.4191058",
"address":"Krouzova 24\nPraha 12",
"openingHours":"1: 900-1800, 2: 900-1800, 3: 900-1800, 4: 900-1800, 5: 900-1800, 6: 800-1100",
"infoLink":"https:\/\/www.kvetinarstvi-erika.wz.cz",
"category":"obchod",
"filter":"Květinářství"
},
{
"title":"Květiny Šťastný",
"locationLat":"50.0094319",
"locationLong":"14.4534500",
"address":"Pavlíkova 12\nPraha 12",
"openingHours":"1: 900-1800, 2: 900-1800, 3: 900-1800, 4: 900-1800, 5: 900-1800, 6: 800-1ě00",
"category":"obchod",
"filter":"Květinářství"
},
{
"title":"Masáže Jitka Pelikánová",
"text":"Bachovy esence a masáže. V Klubu Pohoda každé úterý odpoledne, pátek a víkendy dle objednání.",
"locationLat":"50.0100181",
"locationLong":"14.4179078",
"address":"Klub Pohoda (vstup zadním vchodem)\nKrouzova 8\nPraha 12",
"infoLink":"https:\/\/www.bachovky-masaze.cz",
"email":"jitkapelikanova@email.cz",
"phone":"777 958 639",
"category":"obchod",
"filter":"Wellness"
},
{
"title":"Sauna klub Modřany",
"text":"Sauna, masáže. Objednávky do sauny minimálně 2 hodiny předem.",
"locationLat":"50.0013244",
"locationLong":"14.4081692",
"address":"Pekárkova 24\nPraha 12",
"infoLink":"https:\/\/www.saunaklub.cz",
"email":"info@saunaklub.cz",
"phone":"602 645 888",
"category":"obchod",
"filter":"Wellness"
},
{
"title":"Wellness studio Pink",
"text":"Cvičení, hubnutí, kosmetika, depilace, masáže, solárium a více.",
"locationLat":"50.0090400",
"locationLong":"14.4250083",
"address":"Rakovského 2\nPraha 12",
"openingHours":"1: 700-2030, 2: 700-2030, 3: 700-2030, 4: 700-2030, 5: 800-1800, 6: 1000-1800, 7: 1000-1800",
"infoLink":"https:\/\/wellnesspink.cz",
"phone":"605 50 99 55",
"category":"obchod",
"filter":"Wellness"
},
{
"title":"Zdravá výživa Mája",
"locationLat":"50.0044617",
"locationLong":"14.4050008",
"address":"U Domu služeb 2a\nPraha 12",
"openingHours":"1: 900-1900, 2: 900-1900, 3: 900-1900, 4: 900-1900, 5: 900-1800, 6: 900-1200",
"infoLink":"https:\/\/www.zdrava-vyziva-maja.cz",
"phone":"775 751 122",
"category":"obchod",
"filter":"Potraviny"
},
{
"title":"Zdravá výživa Levandule",
"locationLat":"50.0055375",
"locationLong":"14.4144531",
"address":"Poliklinika Modřany, přízemí\nSoukalova 3\nPraha 12",
"openingHours":"1: 800-1800, 2: 800-1800, 3: 800-1800, 4: 800-1800, 5: 800-1400",
"phone":"777 213 937",
"category":"obchod",
"filter":"Potraviny"
},
{
"title":"Zdravá výživa Salon Čtyřlístek",
"locationLat":"50.0130731",
"locationLong":"14.4198597",
"address":"Krouzova 30\nPraha 12",
"openingHours":"1: 1330-1930, 2: 1330-1930, 3: 1330-1930, 4: 1330-1930, 5: 1330-1600",
"infoLink":"http:\/\/www.salonctyrlistek.eu",
"phone":"778 086 968",
"category":"obchod",
"filter":"Potraviny"
},
{
"title":"Med p. Ouřada ml.",
"text":"dle cedule na plotě\nvčelař",
"locationLat":"50.0014669",
"locationLong":"14.4124756",
"address":"Písková 24\nPraha 12",
"category":"obchod",
"filter":"Potraviny"
},
{
"title":"Med Jan Ouřada",
"text":"dle cedule na plotě\nvčelař",
"locationLat":"50.0008567",
"locationLong":"14.4078675",
"address":"Staromodřanská 7\nPraha 12",
"category":"obchod",
"filter":"Potraviny"
},
{
"title":"Med Jan Jirouš",
"text":"dle cedule na plotě\nvčelař",
"locationLat":"49.9995153",
"locationLong":"14.4194869",
"address":"Platónova 1\nPraha 12",
"category":"obchod",
"filter":"Potraviny"
},
{
"title":"Med z Roubenky",
"text":"včelař",
"infoLink":"http:\/\/medzroubenky.cz",
"email":"bunc@seznam.cz",
"address":"místo předání dle dohody v okolí Novodvorské",
"category":"obchod",
"filter":"Potraviny"
},
{
"title":"Med z Cholupic",
"text":"dle cedule na plotě\nvčelař",
"locationLat":"49.9848292",
"locationLong":"14.4464572",
"address":"Ke Křížku 98\nPraha 12",
"category":"obchod",
"filter":"Potraviny"
},
{
"title":"Nakládané sýry",
"locationLat":"50.0115600",
"locationLong":"14.4086181",
"address":"Nad Vinicí 4\nPraha 12",
"openingHours":"1: 630-1500, 2: 630-1500, 3: 630-1500, 4: 630-1500, 5: 630-1500",
"infoLink":"http:\/\/nakladanesyry.cz",
"phone":"602 855 080",
"category":"obchod",
"filter":"Potraviny"
},
{
"title":"Vethope",
"locationLat":"50.0000989",
"locationLong":"14.4135844",
"address":"Rozvodova 16\nPraha 12",
"openingHours":"1: 800-2000, 2: 800-2000, 3: 800-2000, 4: 800-2000, 5: 800-2000, 6: 900-1400, 7: 1400-1900",
"infoLink":"http:\/\/www.vethope.cz",
"phone":"212 246 809",
"email":"info@vethope.cz",
"category":"obchod",
"filter":"Veterina"
},
{
"title":"IVET",
"locationLat":"50.0157128",
"locationLong":"14.4462775",
"address":"Ke Kamýku 3\nPraha 12",
"openingHours":"1: 0-2359, 2: 0-2359, 3: 0-2359, 4: 0-2359, 5: 0-2359, 6: 0-2359, 7: 0-2359",
"infoLink":"http:\/\/www.veterinarni-klinika.net",
"phone":"241 714 358",
"category":"obchod",
"filter":"Veterina"
},
{
"title":"Horus EYE",
"text":"Fotoateliér, fotografické kurzy, tvorba webových stránek.\n\nvchod je z druhé strany domu",
"locationLat":"50.0130289",
"locationLong":"14.4196189",
"address":"Krouzova 28\nPraha 12",
"infoLink":"http:\/\/www.horoviny.cz",
"phone":"776 209 970",
"email":"hora@horuseye.cz",
"category":"obchod",
"filter":"Fotoateliér"
},
{
"title":"Bibliobus Těšíkova",
"text":"Bibliobus – knihovna na kolečkách. Pojízdná knihovna čtenářům nabízí široký výběr čtení pro děti i dospělé a internet. Správnou knihu pro každou příležitost pomůže vybrat „pojízdný“ knihovník.",
"locationLat":"50.0146389",
"locationLong":"14.4266572",
"address":"Těšíkova\nPraha 12",
"openingHours":"3: 1400-1800",
"contactNote":"Jen SUDÉ TÝDNY",
"infoLink":"https:\/\/www.mlp.cz\/cz\/kontakty\/bibliobus",
"category":"obchod",
"filter":"Knihovna"
},
{
"title":"Bibliobus Pavelkova",
"text":"Bibliobus – knihovna na kolečkách. Pojízdná knihovna čtenářům nabízí široký výběr čtení pro děti i dospělé a internet. Správnou knihu pro každou příležitost pomůže vybrat „pojízdný“ knihovník.",
"locationLat":"50.0002931",
"locationLong":"14.4280894",
"address":"Pavelkova\nPraha 12",
"openingHours":"3: 1400-1800",
"contactNote":"Jen LICHÉ TÝDNY",
"infoLink":"https:\/\/www.mlp.cz\/cz\/kontakty\/bibliobus",
"category":"obchod",
"filter":"Knihovna"
},
{
"title":"Městská knihovna Novodvorská",
"text":"Městská knihovna v Praze",
"locationLat":"50.0246964",
"locationLong":"14.4330675",
"address":"Novodvorská 151\nPraha 4",
"openingHours":"1: 1300-1900, 2: 900-1600, 3: 1200-1900, 4: 1200-1900, 5:900-1600",
"infoLink":"https:\/\/www.mlp.cz",
"category":"obchod",
"filter":"Knihovna"
},
{
"title":"Městská knihovna Vazovova",
"text":"Městská knihovna v Praze",
"locationLat":"50.005798",
"locationLong":"14.433956",
"address":"Vazovova 1\nPraha 12",
"openingHours":"1: 1300-1900, 2: 900-1600, 3: 1200-1900, 4: 1200-1900, 5:900-1600",
"infoLink":"https:\/\/www.mlp.cz",
"category":"obchod",
"filter":"Knihovna"
},
{
"title":"Husova knihovna",
"locationLat":"50.0029606",
"locationLong":"14.4050842",
"address":"Komořanská 12\nPraha 12",
"text":"Husova knihovna v Modřanech má dlouholetou tradici, byla založena v roce 1922 na popud vzdělávácí modřanské Besedy Tyl.",
"infoLink":"http:\/\/husova-knihovna-v-modranech.webnode.cz",
"openingHours":"1: 1100-1800, 3: 900-1700, 4: 1300-1900",
"category":"obchod",
"filter":"Knihovna"
}
]}