{"items":[
{
"title":"Často kladené otázky",
"text":"FAQ",
"category":"informace"
},
{
"title":"Web městské části",
"text":"www.praha12.cz",
"infoLink":"https:\/\/www.praha12.cz",
"category":"informace"
},
{
"title":"Facebook městské části",
"text":"Praha 12",
"infoLink":"https:\/\/www.facebook.com\/Praha-12-1010733405609946",
"category":"informace"
},
{
"title":"FB skupina obyvatel",
"text":"Modřany, Praha 12",
"infoLink":"https:\/\/www.facebook.com\/groups\/1677444912493517",
"category":"informace"
},
{
"title":"Hlídač smluv Prahy 12",
"text":"Informace a analýzy z registru smluv uzavřených Prahou 12.",
"infoLink":"https:\/\/www.hlidacstatu.cz\/subjekt\/00231151",
"category":"informace"
},
{
"title":"Lékařská služba první pomoci",
"locationLat":"50.030006",
"locationLong":"14.4567378",
"address":"Thomayerova nemocnice\nPavilon B1\nVídeňská 800\nPraha 4",
"phone":"261 081 111",
"infoLink":"http:\/\/www.ftn.cz",
"openingHours":"1: 0-630, 1: 1900-2359, 2: 0-630, 2: 1900-2359, 3: 0-630, 3: 1900-2359, 4: 0-630, 4: 1900-2359, 5: 0-630, 5: 1900-2359, 6: 0-2359, 7: 0-2359",
"category":"prvniPomoc"
},
{
"title":"Zubní pohotovost",
"locationLat":"50.030006",
"locationLong":"14.4567378",
"address":"Thomayerova nemocnice\nPavilon B1\nVídeňská 800\nPraha 4",
"phone":"261 083 546",
"infoLink":"http:\/\/www.ftn.cz",
"openingHours":"1: 1730-2230, 2: 1730-2230, 3: 1730-2230, 4: 1730-2230, 5: 1730-2230, 6: 730-2230, 7: 730-2230",
"category":"prvniPomoc"
},
{
"title":"Policie ČR - Místní oddělení Modřany",
"locationLat":"50.0049343",
"locationLong":"14.4147559",
"address":"Soukalova 3408\nPraha 12",
"phone":"241 768 204",
"infoLink":"http:\/\/www.policie.cz",
"openingHours":"1: 730-1530, 2: 730-1530, 3: 730-1530, 4: 730-1530, 5: 730-1530",
"category":"policie"
},
{
"title":"Městská policie - obvodní ředitelství Praha 12",
"locationLat":"50.00107",
"locationLong":"14.4221574",
"address":"Násirovo náměstí 1\nPraha 12",
"phone":"222 025 708",
"infoLink":"http:\/\/www.mppraha.cz",
"openingHours":"1: 0-2359, 2: 0-2359, 3: 0-2359, 4: 0-2359, 5: 0-2359, 6: 0-2359, 7: 0-2359",
"category":"policie"
},
{
"title":"Městská policie - služebna Libuš",
"locationLat":"49.9922831",
"locationLong":"14.4655811",
"address":"Ladislava Coňka 6\nPraha 4",
"phone":"244 471 687",
"infoLink":"http:\/\/www.mppraha.cz",
"text":"Okrskové služebny nejsou v provozu 24 hodin denně. Obraťte se případně na obvodní ředitelství.",
"category":"policie"
},
{
"title":"Městská policie - služebna Točná",
"locationLat":"49.9728344",
"locationLong":"14.4316736",
"address":"náměstí Anonína Pecáka 37\nPraha 12",
"phone":"241 910 821",
"infoLink":"http:\/\/www.mppraha.cz",
"text":"Okrskové služebny nejsou v provozu 24 hodin denně. Obraťte se případně na obvodní ředitelství.",
"category":"policie"
},
{
"title":"Městská policie - služebna Modřany",
"locationLat":"50.0022061",
"locationLong":"14.4139206",
"address":"Gen. Šišky 6\nPraha 12",
"infoLink":"http:\/\/www.mppraha.cz",
"text":"Okrskové služebny nejsou v provozu 24 hodin denně. Obraťte se případně na obvodní ředitelství.",
"category":"policie"
},
{
"title":"Elektrický proud",
"text":"PREdistribuce\n\nVolejte, pokud došlo k výpadku dodávky elektřiny, chcete informace o obnově dodávek, nefunguje vám elektroměr či HDO apod.",
"phone":"1236",
"infoLink":"https:\/\/www.predistribuce.cz\/cs\/kontakt\/hlaseni-poruchy",
"category":"havarie"
},
{
"title":"Plyn",
"text":"Pražská plynárenská",
"infoLink":"http:\/\/www.ppas.cz",
"phone":"1239",
"category":"havarie"
},
{
"title":"Voda, kanalizace",
"text":"Pražské vodovody a kanalizace",
"infoLink":"http:\/\/www.pvk.cz\/aktuality\/havarie-vody\/aktualni-havarie",
"phone":"840 111 112",
"category":"havarie"
},
{
"title":"Veřejné osvětlení",
"text":"Technologie hlavního města Praha\n\nVyplňte odkazovaný formulář nebo volejte, pokud nesvítí veřejné osvětlení, nefungují veřejné hodiny nebo došlo k poškození sloupu či jeho patice.",
"phone":"800 40 40 60",
"infoLink":"https:\/\/www.skenujprahu.cz\/praha-sviti",
"category":"havarie"
},
{
"title":"Světelná dopravní signalizace",
"text":"Eltodo",
"infoLink":"http:\/\/www.eltodo.cz\/hlaseni-poruch.html",
"phone":"800 101 109",
"category":"havarie"
},
{
"title":"Dr. Max, Soukalova (Poliklinika Modřany)",
"locationLat":"50.0057919",
"locationLong":"14.4142543",
"address":"Poliklinika Modřany\nSoukalova 3355\nPraha 12",
"phone":"241 760 034",
"infoLink":"https:\/\/www.drmax.cz",
"openingHours":"1: 700-1900, 2: 700-1900, 3: 700-1900, 4: 700-1900, 5: 700-1900, 6: 800-1200",
"category":"lekarna"
},
{
"title":"Dr. Max, Lhotecká (Kaufland)",
"locationLat":"50.0136358",
"locationLong":"14.4191238",
"address":"Lhotecká 2d\nPraha 12",
"phone":"244 471 469",
"infoLink":"https:\/\/www.drmax.cz",
"openingHours":"1: 800-2000, 2: 800-2000, 3: 800-2000, 4: 800-2000, 5: 800-2000, 6: 800-2000, 7: 800-2000",
"category":"lekarna"
},
{
"title":"Dr. Max, Zdislavská (Jasná)",
"locationLat":"50.0175758",
"locationLong":"14.4431651",
"address":"Zdislavická 538\nPraha 12",
"phone":"244 473 372",
"infoLink":"https:\/\/www.drmax.cz",
"openingHours":"1: 800-1800, 2: 800-1800, 3: 800-1800, 4: 800-1800, 5: 800-1800",
"category":"lekarna"
},
{
"title":"Lékárna Zárubova",
"locationLat":"50.0152336",
"locationLong":"14.4351996",
"address":"Zárubova 31\nPraha 12",
"phone":"241 712 465",
"openingHours":"1: 700-1830, 2: 700-1830, 3: 700-1830, 4: 700-1830, 5: 700-1830",
"category":"lekarna"
},
{
"title":"Scarabeus",
"locationLat":"50.0059941",
"locationLong":"14.4172",
"address":"Sofijské náměstí 2\nPraha 12",
"phone":"241 767 177",
"openingHours":"1: 800-1800, 2: 800-1800, 3: 800-1800, 4: 800-1800, 5: 800-1800, 6: 830-1200",
"category":"lekarna"
},
{
"title":"Magistra Lékárna U polikliniky",
"locationLat":"50.0057222",
"locationLong":"14.4161081",
"address":"Čs. exilu 30\nPraha 12",
"phone":"730 840 250",
"infoLink":"https:\/\/www.magistra.cz",
"openingHours":"1: 800-1730, 2: 800-1730, 3: 800-1730, 4: 800-1730, 5: 800-1730",
"category":"lekarna"
},
{
"title":"Lékárna Vltava",
"locationLat":"50.003119",
"locationLong":"14.4061768",
"address":"K Dolům 8\nPraha 12",
"phone":"226 804 998",
"infoLink":"http:\/\/www.lekarna-vltava.cz",
"openingHours":"1: 800-1900, 2: 800-1900, 3: 800-1900, 4: 800-1900, 5: 800-1900",
"category":"lekarna"
},
{
"title":"Libušská lékárna",
"locationLat":"50.007246",
"locationLong":"14.4631925",
"address":"Libušská 65\nPraha 4",
"phone":"241 471 287",
"openingHours":"1: 800-1800, 2: 800-1800, 3: 800-1800, 4: 800-1800, 5: 800-1800",
"category":"lekarna"
},
{
"title":"Písnická lékárna",
"locationLat":"50.0017294",
"locationLong":"14.466446",
"address":"Libušská 126\nPraha 4",
"phone":"244 092 111",
"openingHours":"1: 900-1800, 2: 900-1800, 3: 900-1800, 4: 900-1800, 5: 900-1800, 6: 900-1500",
"category":"lekarna"
},
{
"title":"Lékárna Kamýk",
"locationLat":"50.0149992",
"locationLong":"14.4372261",
"address":"Vosátkova 1\nPraha 12",
"phone":"241 011 277",
"openingHours":"1: 800-1830, 2: 800-1830, 3: 800-1830, 4: 800-1830, 5: 800-1830, 6: 800-1200",
"category":"lekarna"
},
{
"title":"V Pasáži Sofie",
"locationLat":"50.0058156",
"locationLong":"14.4182378",
"address":"Sofijské náměstí\nPraha 12",
"openingHours":"1: 900-1900, 2: 900-1900, 3: 900-1900, 4: 900-1900, 5: 900-1900, 6: 800-1200",
"category":"wc"
},
{
"title":"Radnice Prahy 12 (u restaurace)",
"locationLat":"50.0025575",
"locationLong":"14.4147478",
"address":"Generála Šišky 6\nPraha 12",
"openingHours":"1: 800-2300, 2: 800-2300, 3: 800-2300, 4: 800-2300, 5: 800-2300, 6: 1100-2300, 7: 1100-2300",
"category":"wc"
},
{
"title":"V Kauflandu",
"locationLat":"50.0137481",
"locationLong":"14.4192061",
"address":"Lhotecká 2d\nPraha 12",
"openingHours":"1: 700-2200, 2: 700-2200, 3: 700-2200, 4: 700-2200, 5: 700-2200, 6: 700-2200, 7: 700-2200",
"category":"wc"
},
{
"title":"Na hřišti u letiště Točná",
"locationLat":"49.9873417",
"locationLong":"14.4285297",
"category":"wc"
},
{
"title":"V areálu VOSA",
"locationLat":"50.0123844",
"locationLong":"14.4248564",
"openingHours":"1: 800-1900, 2: 800-1900, 3: 800-1900, 4: 800-1900, 5: 800-1900, 6: 800-1900, 7: 800-1900",
"category":"wc"
},
{
"title":"V poliklinice",
"locationLat":"50.0056775",
"locationLong":"14.4143325",
"address":"Soukalova 3\nPraha 12",
"openingHours":"1: 700-1900, 2: 700-1900, 3: 700-1900, 4: 700-1900, 5: 700-1900",
"category":"wc"
}
]}